Name,description,timestamp,begin,end,altitudeMode,tessellate,extrude,visibility,drawOrder,icon,PLR_ID,PLR_NAME,BEZ,STAND,GROESSE_M2,latitude,longitude
,,,,,,-1,0,-1,,,11501341,Karlshorst Süd,11,01.01.2021,2294021.723,47.28495,8.56954
,,,,,,-1,0,-1,,,07601340,Tirschenreuther Ring Ost,07,01.01.2021,413969.326,51.21551,2.927
,,,,,,-1,0,-1,,,02500831,Wismarplatz,02,01.01.2021,248988.291,52.511024,13.4631234
,,,,,,-1,0,-1,,,12601134,Märkisches Zentrum,12,01.01.2021,1127855.841,52.5975125,13.3545222
,,,,,,-1,0,-1,,,07601547,Horstwalder Straße,07,01.01.2021,941433.954,52.3828929,13.4132111
,,,,,,-1,0,-1,,,08301036,Gropiusstadt Mitte,08,01.01.2021,695018.485,52.52003,13.40489
,,,,,,-1,0,-1,,,05200421,Spandauer Straße,05,01.01.2021,720067.571,52.5179852,13.4076167
,,,,,,-1,0,-1,,,05200418,Isenburger Weg,05,01.01.2021,1284627.903,52.5424316,13.1355584
,,,,,,-1,0,-1,,,11501238,Rummelsburg,11,01.01.2021,2401515.387,52.5013696,13.4835143
,,,,,,-1,0,-1,,,07200412,Schöneberger Linse,07,01.01.2021,231294.249,50.4315,2.8331
,,,,,,-1,0,-1,,,07100103,Frobenstraße,07,01.01.2021,342043.539,52.4292149,13.3420932
,,,,,,-1,0,-1,,,03400618,Rosenthal,03,01.01.2021,1798385.975,50.9737599,8.8694202
,,,,,,-1,0,-1,,,10200526,Boulevard Kastanienallee,10,01.01.2021,526608.425,52.53076,13.6041276
,,,,,,-1,0,-1,,,07300516,Odenwaldstraße,07,01.01.2021,458716.636,50.5259589,9.7039402
,,,,,,-1,0,-1,,,10100205,Gewerbegebiet Bitterfelder Straße,10,01.01.2021,3601314.587,,
,,,,,,-1,0,-1,,,02300315,Lausitzer Platz,02,01.01.2021,350907.658,52.5001825,13.430793
,,,,,,-1,0,-1,,,07601548,Wittelsbacherstraße,07,01.01.2021,968261.882,52.4950248,13.3114265
,,,,,,-1,0,-1,,,10100314,Auersbergstraße,10,01.01.2021,470905.654,52.538301,13.5571124
,,,,,,-1,0,-1,,,07601443,Töpchiner Weg,07,01.01.2021,1986689.085,52.4103738,13.4179726
,,,,,,-1,0,-1,,,03601245,Ostseestraße,03,01.01.2021,966047.252,52.5512125,13.4305099
,,,,,,-1,0,-1,,,02500832,Traveplatz,02,01.01.2021,369567.495,52.5108664,13.4701701
,,,,,,-1,0,-1,,,10200630,Cecilienplatz,10,01.01.2021,377288.218,52.5213957,13.5907518
,,,,,,-1,0,-1,,,02100104,Moritzplatz,02,01.01.2021,380547.712,52.5036623,13.4107479
,,,,,,-1,0,-1,,,03701554,Teutoburger Platz,03,01.01.2021,548486.697,52.5320755,13.4089061
,,,,,,-1,0,-1,,,03500933,Weißer See,03,01.01.2021,1055229.992,52.5540762,13.4634261
,,,,,,-1,0,-1,,,07100204,Barbarossaplatz,07,01.01.2021,515151.482,49.6318063,8.372465
,,,,,,-1,0,-1,,,05200420,Staakener Straße,05,01.01.2021,2627506.883,52.536323,13.1894822
,,,,,,-1,0,-1,,,08100312,Weichselplatz,08,01.01.2021,515944.623,52.4878958,13.4391384
,,,,,,-1,0,-1,,,10100103,Wittenberger Straße,10,01.01.2021,686657.51,52.5651614,13.570569
,,,,,,-1,0,-1,,,03601451,Anton-Saefkow-Park,03,01.01.2021,546889.645,52.5374016,13.4401119
,,,,,,-1,0,-1,,,06400736,Düppel,06,01.01.2021,3130515.711,54.914791,9.7211826
,,,,,,-1,0,-1,,,01400937,Afrikanische Straße,01,01.01.2021,3674225.411,52.5602382,13.3346178
,,,,,,-1,0,-1,,,07601339,Tirschenreuther Ring West,07,01.01.2021,453765.631,5.5,10.66667
,,,,,,-1,0,-1,,,06300632,Schweizer Viertel,06,01.01.2021,3085882.409,51.0367797,13.7253944
,,,,,,-1,0,-1,,,07601545,Nahariyastraße,07,01.01.2021,900458.165,52.3904008,13.4201686
,,,,,,-1,0,-1,,,05100103,Mertensstraße,05,01.01.2021,719119.684,52.5641551,13.2199927
,,,,,,-1,0,-1,,,08100314,Donaustraße,08,01.01.2021,255918.243,52.4815073,13.4372884
,,,,,,-1,0,-1,,,05200526,Rudolf-Wissell-Großsiedlung,05,01.01.2021,379178.642,,
,,,,,,-1,0,-1,,,04500938,Hochmeisterplatz,04,01.01.2021,517757.943,52.4956567,13.3005764
,,,,,,-1,0,-1,,,07400826,Marienhöhe,07,01.01.2021,1169632.724,50.6094027,12.3861526
,,,,,,-1,0,-1,,,09501939,Bahnhofstraße,09,01.01.2021,1142557.213,47.3739118,8.5383283
,,,,,,-1,0,-1,,,06100208,Bergstraße,06,01.01.2021,620619.175,51.0265107,13.7315944
,,,,,,-1,0,-1,,,03200206,Pastor-Niemöller-Platz,03,01.01.2021,1104544.755,52.579673,13.3977639
,,,,,,-1,0,-1,,,03601452,Velodrom,03,01.01.2021,552164.165,-22.9751539,-43.3924047
,,,,,,-1,0,-1,,,11200513,Große-Leege-Straße,11,01.01.2021,688243.681,52.5474752,13.5007733
,,,,,,-1,0,-1,,,05100104,Maselake,05,01.01.2021,559348.325,52.5591053,13.2104529
,,,,,,-1,0,-1,,,12601235,Dannenwalder Weg,12,01.01.2021,523435.195,52.5914462,13.3471806
,,,,,,-1,0,-1,,,03400725,Schlosspark,03,01.01.2021,1259152.298,53.239838,8.2082824
,,,,,,-1,0,-1,,,04300416,Amtsgerichtsplatz,04,01.01.2021,580690.467,52.5065043,13.2954038
,,,,,,-1,0,-1,,,04501148,Brabanter Platz,04,01.01.2021,420097.518,52.4818517,13.31649
,,,,,,-1,0,-1,,,08401244,Waßmannsdorfer Chaussee,08,01.01.2021,2776814.494,52.4073286,13.4918521
,,,,,,-1,0,-1,,,09301024,Falkenberg,09,01.01.2021,1148564.176,56.904894,12.4912926
,,,,,,-1,0,-1,,,06400843,Thielallee,06,01.01.2021,2111239.52,52.4510872,13.2871334
,,,,,,-1,0,-1,,,12200412,Waldidyll/Flughafensee,12,01.01.2021,5947881.881,,
,,,,,,-1,0,-1,,,12200515,Alt-Tegel,12,01.01.2021,2392477.977,52.5894565,13.2837514
,,,,,,-1,0,-1,,,07501135,Birnhornweg,07,01.01.2021,555575.417,52.4244236,13.3955555
,,,,,,-1,0,-1,,,01100103,Lützowstraße,01,01.01.2021,522279.456,48.1546529,11.4538435
,,,,,,-1,0,-1,,,08200725,Mohriner Allee Nord,08,01.01.2021,1629928.914,50.33333,3.66667
,,,,,,-1,0,-1,,,03701658,Christburger Straße,03,01.01.2021,232827.898,52.5370905,13.4232824
,,,,,,-1,0,-1,,,05100312,Eckschanze,05,01.01.2021,332709.609,52.5517741,13.1978918
,,,,,,-1,0,-1,,,03601449,Michelangelostraße,03,01.01.2021,858322.778,52.545096,13.445085
,,,,,,-1,0,-1,,,04501151,Hildegardstraße,04,01.01.2021,323678.704,52.481815,13.3216725
,,,,,,-1,0,-1,,,11400928,Nöldnerplatz,11,01.01.2021,584236.747,52.5038434,13.4853253
,,,,,,-1,0,-1,,,12200411,Schumacher-Quartier,12,01.01.2021,670383.746,52.5553695,13.3161202
,,,,,,-1,0,-1,,,05300840,Nonnendammallee,05,01.01.2021,3274832.767,52.5366152,13.2666353
,,,,,,-1,0,-1,,,01300835,Humboldthain Süd,01,01.01.2021,1103870.067,51.4344015,6.9435156
,,,,,,-1,0,-1,,,01401044,Uferstraße,01,01.01.2021,491567.116,51.0632629,13.7356222
,,,,,,-1,0,-1,,,04300621,Richard-Wagner-Straße,04,01.01.2021,550733.771,52.516801,13.3067073
,,,,,,-1,0,-1,,,04300620,Spreestadt,04,01.01.2021,715515.505,,
,,,,,,-1,0,-1,,,01200520,Bremer Straße,01,01.01.2021,429956.469,50.1271375,8.671413
,,,,,,-1,0,-1,,,12500929,Lübars,12,01.01.2021,5011409.636,52.6146467,13.3530197
,,,,,,-1,0,-1,,,08200831,Buckow West,08,01.01.2021,1457762.154,54.3545968,16.3352461
,,,,,,-1,0,-1,,,09200818,Spindlersfeld,09,01.01.2021,571610.581,52.4484638,13.5644851
,,,,,,-1,0,-1,,,06300528,Teltower Damm,06,01.01.2021,3119460.994,52.4103093,13.2671861
,,,,,,-1,0,-1,,,10100102,Rosenbecker Straße,10,01.01.2021,327912.668,52.570393,13.5737754
,,,,,,-1,0,-1,,,06300631,Goerzwerke,06,01.01.2021,1783623.157,,
,,,,,,-1,0,-1,,,04300622,Ernst-Reuter-Platz,04,01.01.2021,959925.982,52.5118853,13.3221613
,,,,,,-1,0,-1,,,01401046,Nordufer,01,01.01.2021,325057.192,52.1649811,10.307698
,,,,,,-1,0,-1,,,11100102,Dorf Falkenberg,11,01.01.2021,3056834.492,52.7375372,13.8379127
,,,,,,-1,0,-1,,,03300516,Heinersdorf,03,01.01.2021,3906794.569,52.5728248,13.4370149
,,,,,,-1,0,-1,,,05200527,Maulbeerallee,05,01.01.2021,1311825.745,52.5240088,13.1677663
,,,,,,-1,0,-1,,,06100209,Feuerbachstraße,06,01.01.2021,633835.16,52.463673,13.3326994
,,,,,,-1,0,-1,,,11100205,Wartenberg Süd,11,01.01.2021,455958.935,48.3960884,11.9937834
,,,,,,-1,0,-1,,,12601133,Treuenbrietzener Straße,12,01.01.2021,918330.963,52.6019898,13.3660559
,,,,,,-1,0,-1,,,10200423,Böhlener Straße,10,01.01.2021,920800.163,52.5390651,13.6316878
,,,,,,-1,0,-1,,,04501044,Ludwigkirchplatz,04,01.01.2021,314917.324,52.4975581,13.3226705
,,,,,,-1,0,-1,,,06400840,Fischtal,06,01.01.2021,1385393.678,52.612056,17.289117
,,,,,,-1,0,-1,,,04200311,Königin-Elisabeth-Straße,04,01.01.2021,1555799.524,52.5099327,13.2819246
,,,,,,-1,0,-1,,,12100102,Hausotterplatz,12,01.01.2021,809947.517,52.5693658,13.3754325
,,,,,,-1,0,-1,,,10400836,Alt-Kaulsdorf,10,01.01.2021,1349164.897,52.5051099,13.5879098
,,,,,,-1,0,-1,,,05200419,Am Heideberg,05,01.01.2021,422278.199,51.2967163,13.2519023
,,,,,,-1,0,-1,,,06100101,Fichtenberg,06,01.01.2021,989969.522,48.9861705,9.7128293
,,,,,,-1,0,-1,,,05200630,Wilhelmstadt West,05,01.01.2021,909110.427,5.5,10.66667
,,,,,,-1,0,-1,,,07400825,Friedrich-Karl-Straße,07,01.01.2021,418519.804,53.4320555,14.5548099
,,,,,,-1,0,-1,,,10200525,Schleipfuhl,10,01.01.2021,475941.269,53.3074668,13.9033663
,,,,,,-1,0,-1,,,11300725,Nibelungenviertel,11,01.01.2021,683420.436,49.4382636,11.0980243
,,,,,,-1,0,-1,,,11100307,Zingster Straße Ost,11,01.01.2021,730342.961,51.21551,2.927
,,,,,,-1,0,-1,,,12200308,Mellerbogen,12,01.01.2021,527624.818,,
,,,,,,-1,0,-1,,,06200421,Königsberger Straße,06,01.01.2021,2035750.444,49.2399931,10.4812993
,,,,,,-1,0,-1,,,01400938,Kameruner Straße,01,01.01.2021,1196145.083,52.5519958,13.3491178
,,,,,,-1,0,-1,,,03500934,Weißenseer Spitze,03,01.01.2021,627288.067,,
,,,,,,-1,0,-1,,,06400735,Wannsee,06,01.01.2021,23734915.62,52.4211482,13.1589374
,,,,,,-1,0,-1,,,09200717,Dörpfeldstraße Ost,09,01.01.2021,2545920.748,50.1441903,8.6847893
,,,,,,-1,0,-1,,,06400844,Dahlem,06,01.01.2021,3308713.464,52.4573805,13.2810976
,,,,,,-1,0,-1,,,06300634,Lichterfelde West,06,01.01.2021,1584125.667,52.4433056,13.2935862
,,,,,,-1,0,-1,,,02500726,Hausburgviertel,02,01.01.2021,309446.042,52.5246139,13.4530257
,,,,,,-1,0,-1,,,12601032,Rollbergesiedlung,12,01.01.2021,501318.326,52.6083518,13.3340885
,,,,,,-1,0,-1,,,05100315,Ackerstraße,05,01.01.2021,489147.655,52.5346617,13.3917376
,,,,,,-1,0,-1,,,12400722,Hermsdorf West,12,01.01.2021,3158178.624,50.8706732,11.8486102
,,,,,,-1,0,-1,,,08300934,Gropiusstadt Nord-West,08,01.01.2021,847613.011,5.5,10.66667
,,,,,,-1,0,-1,,,05100208,Im Spektefeld,05,01.01.2021,1765403.951,52.5492388,13.1541432
,,,,,,-1,0,-1,,,05100207,An der Tränke,05,01.01.2021,592567.445,50.8120494,6.5202227
,,,,,,-1,0,-1,,,02500835,Stralauer Kiez,02,01.01.2021,1355160.809,,
,,,,,,-1,0,-1,,,05200528,Weinmeisterhornweg,05,01.01.2021,2738260.541,52.5154633,13.1610768
,,,,,,-1,0,-1,,,04400832,Breite Straße,04,01.01.2021,667156.415,50.9388235,6.9468496
,,,,,,-1,0,-1,,,12400619,Heiligensee,12,01.01.2021,17920879.74,52.6122549,13.2295789
,,,,,,-1,0,-1,,,01401047,Sparrplatz,01,01.01.2021,309196.444,52.5418709,13.3605284
,,,,,,-1,0,-1,,,11200512,Orankesee,11,01.01.2021,1936946.851,52.5487672,13.4823462
,,,,,,-1,0,-1,,,03601243,Rodenbergstraße,03,01.01.2021,329695.603,52.550336,13.4187231
,,,,,,-1,0,-1,,,10400835,Kaulsdorf Nord,10,01.01.2021,2552486.331,52.5211535,13.5889176
,,,,,,-1,0,-1,,,05100313,Eiswerder,05,01.01.2021,1665431.865,52.5489561,13.219218
,,,,,,-1,0,-1,,,09301228,Schmöckwitz/Rauchfangswerder,09,01.01.2021,14762928.79,52.3454282,13.6464842
,,,,,,-1,0,-1,,,09300921,Preußen Siedlung,09,01.01.2021,1462066.002,,
,,,,,,-1,0,-1,,,10100316,Landsberger Tor,10,01.01.2021,1608741.423,42.06246,-104.18439
,,,,,,-1,0,-1,,,11401032,Rosenfelder Ring,11,01.01.2021,567616.948,52.5119957,13.5100292
,,,,,,-1,0,-1,,,05100317,Freiheit,05,01.01.2021,2278703.952,50.6262304,15.8164318
,,,,,,-1,0,-1,,,06200315,Gallwitzallee,06,01.01.2021,1175516.56,52.4332021,13.3461678
,,,,,,-1,0,-1,,,04400833,Schlangenbader Straße,04,01.01.2021,353209.3,52.4702523,13.3079877
,,,,,,-1,0,-1,,,09501838,Rahnsdorf,09,01.01.2021,21450568.86,52.4358729,13.7018024
,,,,,,-1,0,-1,,,03601244,Humannplatz,03,01.01.2021,364157.931,52.549074,13.4222957
,,,,,,-1,0,-1,,,12400720,Frohnau West,12,01.01.2021,2749772.919,5.5,10.66667
,,,,,,-1,0,-1,,,11501340,Karlshorst Nord,11,01.01.2021,3297882.93,52.4767486,13.5368374
,,,,,,-1,0,-1,,,07200414,Hohenfriedbergstraße,07,01.01.2021,263433.439,52.4861012,13.3648058
,,,,,,-1,0,-1,,,07200410,Feurigstraße,07,01.01.2021,250440.158,52.4826969,13.3527205
,,,,,,-1,0,-1,,,09301126,Grünau,09,01.01.2021,9172773.623,52.4154272,13.5805633
,,,,,,-1,0,-1,,,04501152,Prager Platz,04,01.01.2021,349862.501,52.4929938,13.3333247
,,,,,,-1,0,-1,,,09401329,Kietzer Feld/Nachtheide,09,01.01.2021,17024906.11,,
,,,,,,-1,0,-1,,,01100312,Heine-Viertel West,01,01.01.2021,643611.114,5.5,10.66667
,,,,,,-1,0,-1,,,01200522,Elberfelder Straße,01,01.01.2021,639455.329,52.5250804,13.3362901
,,,,,,-1,0,-1,,,03200207,Herthaplatz,03,01.01.2021,3080810.743,52.585035,13.4089419
,,,,,,-1,0,-1,,,05200629,Borkumer Straße,05,01.01.2021,1325562.762,52.5325392,13.194984
,,,,,,-1,0,-1,,,07601237,Kirchstraße,07,01.01.2021,1235685.18,53.9421121,14.0727179
,,,,,,-1,0,-1,,,03601139,Norweger Viertel,03,01.01.2021,454220.488,52.5518273,13.39982
,,,,,,-1,0,-1,,,11100309,Mühlengrund,11,01.01.2021,706043.781,48.4464662,16.3102507
,,,,,,-1,0,-1,,,08100416,Alt-Rixdorf,08,01.01.2021,334331.154,52.4781911,13.448251
,,,,,,-1,0,-1,,,11200410,Malchower Weg,11,01.01.2021,2232954.788,52.5502554,13.5079392
,,,,,,-1,0,-1,,,03300517,Märchenland,03,01.01.2021,5824513.255,48.8753427,2.774695
,,,,,,-1,0,-1,,,03100101,Bucher Forst,03,01.01.2021,18377139.16,50.1842734,11.0504366
,,,,,,-1,0,-1,,,07200308,Volkspark (Rudolph-Wilde-Park),07,01.01.2021,626736.619,54.79833,9.445
,,,,,,-1,0,-1,,,08200833,Buckow Ost,08,01.01.2021,1106975.388,52.43333,13.47017
,,,,,,-1,0,-1,,,07400823,Wittekindstraße,07,01.01.2021,805339.77,52.4555152,13.3722175
,,,,,,-1,0,-1,,,07501134,Hundsteinweg,07,01.01.2021,2253576.277,52.4342711,13.3897945
,,,,,,-1,0,-1,,,09401433,Allende II,09,01.01.2021,1991483.596,21.1206313,-86.8615591
,,,,,,-1,0,-1,,,10400837,Kaulsdorf Süd,10,01.01.2021,4869630.053,52.4935443,13.5770594
,,,,,,-1,0,-1,,,05100101,Hakenfelde Nord,05,01.01.2021,16168772.69,52.5575599,13.209115
,,,,,,-1,0,-1,,,08401139,Vogelviertel Süd,08,01.01.2021,826760.904,47.28495,8.56954
,,,,,,-1,0,-1,,,03400829,Arnold-Zweig-Straße,03,01.01.2021,400602.607,52.5621794,13.4180362
,,,,,,-1,0,-1,,,04200310,Fürstenplatz,04,01.01.2021,931601.723,52.511521,13.2645592
,,,,,,-1,0,-1,,,11400929,Weitlingkiez,11,01.01.2021,842257.177,52.5049334,13.4996344
,,,,,,-1,0,-1,,,10200629,Teterower Ring,10,01.01.2021,999271.16,52.5229194,13.5854229
,,,,,,-1,0,-1,,,12100204,Schäfersee,12,01.01.2021,1115696.482,52.5666629,13.360696
,,,,,,-1,0,-1,,,05100211,An der Kappe,05,01.01.2021,1402781.386,52.5409001,13.1788932
,,,,,,-1,0,-1,,,06200314,Kaiser-Wilhelm-Straße,06,01.01.2021,733778.237,53.4349885,14.5458877
,,,,,,-1,0,-1,,,04200203,Olympiagelände,04,01.01.2021,3264399.304,53.4089579,8.3297986
,,,,,,-1,0,-1,,,09401534,Altstadt Köpenick,09,01.01.2021,796813.695,52.4463547,13.5770732
,,,,,,-1,0,-1,,,07200409,Belziger Straße,07,01.01.2021,530585.274,52.4847151,13.3455615
,,,,,,-1,0,-1,,,05400943,Jägerallee,05,01.01.2021,7331950.637,52.4645139,13.122436
,,,,,,-1,0,-1,,,04200206,Kranzallee,04,01.01.2021,1485544.478,52.5057048,13.2378901
,,,,,,-1,0,-1,,,10100209,Lea-Grundig-Straße,10,01.01.2021,678233.409,52.5535571,13.5686136
,,,,,,-1,0,-1,,,04300518,Kaiserin-Augusta-Allee,04,01.01.2021,1376628.447,52.5256789,13.3063867
,,,,,,-1,0,-1,,,11200411,Hauptstraße,11,01.01.2021,2521336.77,52.4827233,13.3494953
,,,,,,-1,0,-1,,,01300732,Soldiner Straße,01,01.01.2021,588074.499,52.5595651,13.3831082
,,,,,,-1,0,-1,,,07501030,Machonstraße,07,01.01.2021,597111.725,52.4466311,13.3822838
,,,,,,-1,0,-1,,,04400830,Forckenbeckstraße,04,01.01.2021,1494597.349,52.4809712,13.2975414
,,,,,,-1,0,-1,,,01200521,Zwinglistraße,01,01.01.2021,166605.497,52.5256009,13.3313293
,,,,,,-1,0,-1,,,10200422,Hellersdorfer Promenade,10,01.01.2021,451809.839,52.541151,13.6065896
,,,,,,-1,0,-1,,,10400938,Mahlsdorf Nord,10,01.01.2021,4221795.938,52.5229728,13.6316579
,,,,,,-1,0,-1,,,08100209,Glasower Straße,08,01.01.2021,589231.716,52.4640438,13.4334723
,,,,,,-1,0,-1,,,03300412,Karow Bahnhof,03,01.01.2021,3078323.869,53.5408635,12.2728733
,,,,,,-1,0,-1,,,03501038,Hansastraße,03,01.01.2021,1964376.981,52.5485679,13.4735193
,,,,,,-1,0,-1,,,01100207,Leipziger Straße,01,01.01.2021,763637.109,52.5100396,13.3847412
,,,,,,-1,0,-1,,,08100415,Ganghoferstraße,08,01.01.2021,255372.799,52.4640472,13.3101025
,,,,,,-1,0,-1,,,03200308,Nisbléstraße,03,01.01.2021,1134312.492,52.5992052,13.4284152
,,,,,,-1,0,-1,,,01401049,Schulstraße,01,01.01.2021,404127.565,50.4828721,11.3978185
,,,,,,-1,0,-1,,,04400727,Flinsberger Platz,04,01.01.2021,914954.621,52.4843411,13.2916567
,,,,,,-1,0,-1,,,10100315,Bärenstein,10,01.01.2021,646662.812,50.498968,13.0282091
,,,,,,-1,0,-1,,,01100104,Körnerstraße,01,01.01.2021,338448.206,51.3041986,13.2834519
,,,,,,-1,0,-1,,,04200308,Branitzer Platz,04,01.01.2021,2755118.531,52.5161367,13.2710907
,,,,,,-1,0,-1,,,12400723,Hermsdorf Ost/Waldsee,12,01.01.2021,2900145.924,49.39528,8.44028
,,,,,,-1,0,-1,,,06100210,Bismarckstraße,06,01.01.2021,235553.321,52.5115148,13.3052393
,,,,,,-1,0,-1,,,06400838,Krumme Lanke,06,01.01.2021,6419213.143,52.4434481,13.2413921
,,,,,,-1,0,-1,,,07601442,Kettinger Straße,07,01.01.2021,2348208.895,52.4067502,13.3907904
,,,,,,-1,0,-1,,,03601348,Senefelderstraße,03,01.01.2021,219922.187,52.5430432,13.4234696
,,,,,,-1,0,-1,,,08100104,Wartheplatz,08,01.01.2021,551184.763,52.4697154,13.4240487
,,,,,,-1,0,-1,,,03601450,Volkspark Prenzlauer Berg,03,01.01.2021,1212024.847,52.5357885,13.4632174
,,,,,,-1,0,-1,,,08401242,Zittauer Straße,08,01.01.2021,1922467.513,52.4178441,13.4778817
,,,,,,-1,0,-1,,,09100407,Johannisthal West,09,01.01.2021,3247194.597,54.0357284,14.9864999
,,,,,,-1,0,-1,,,10100101,Marzahn West,10,01.01.2021,695705.423,52.5093047,13.5379391
,,,,,,-1,0,-1,,,03300411,Karow Nord,03,01.01.2021,1667533.255,53.8523889,11.4561709
,,,,,,-1,0,-1,,,01401045,Schwedenstraße,01,01.01.2021,267815.116,52.5542712,13.3767477
,,,,,,-1,0,-1,,,07400720,Gontermannstraße,07,01.01.2021,1184451.286,52.4808169,13.3732055
,,,,,,-1,0,-1,,,05200631,Wilhelmstadt Ost,05,01.01.2021,542130.664,51.21551,2.927
,,,,,,-1,0,-1,,,04100102,Paul-Hertz-Siedlung,04,01.01.2021,537861.96,,
,,,,,,-1,0,-1,,,12500926,Wittenau Süd,12,01.01.2021,947518.401,47.28495,8.56954
,,,,,,-1,0,-1,,,10200417,Zossener Straße,10,01.01.2021,450569.895,52.4977431,13.395786
,,,,,,-1,0,-1,,,03400722,Parkstraße,03,01.01.2021,509691.612,50.9329324,6.702713
,,,,,,-1,0,-1,,,11300721,Herzbergstraße,11,01.01.2021,3863010.076,52.5264219,13.4843734
,,,,,,-1,0,-1,,,11200514,Landsberger Allee,11,01.01.2021,940051.993,52.5474227,13.5746308
,,,,,,-1,0,-1,,,01400942,Westliche Müllerstraße,01,01.01.2021,531507.23,49.6452053,8.3522642
,,,,,,-1,0,-1,,,05200525,Pillnitzer Weg,05,01.01.2021,1475113.049,52.5220978,13.1560593
,,,,,,-1,0,-1,,,08401140,Vogelviertel Nord,08,01.01.2021,440889.762,51.9845323,7.7764677
,,,,,,-1,0,-1,,,09501941,Friedrichshagener Straße,09,01.01.2021,1045838.719,52.4526753,13.5773526
,,,,,,-1,0,-1,,,07601546,Franziusweg,07,01.01.2021,1774343.845,52.3976314,13.3871343
,,,,,,-1,0,-1,,,02300316,Köpenicker Straße,02,01.01.2021,471422.054,52.5013866,13.4413626
,,,,,,-1,0,-1,,,10300734,Biesdorf Süd,10,01.01.2021,5205206.423,52.4996047,13.5465321
,,,,,,-1,0,-1,,,07100206,Großgörschenstraße,07,01.01.2021,534755.476,52.4913246,13.3610042
,,,,,,-1,0,-1,,,01200518,Beusselkiez,01,01.01.2021,236849.437,,
,,,,,,-1,0,-1,,,12200414,TXL,12,01.01.2021,5987642.938,15.3937771,104.5521339
,,,,,,-1,0,-1,,,04400831,Messelpark,04,01.01.2021,544703.358,52.465688,13.2905719
,,,,,,-1,0,-1,,,06300526,Zehlendorf Mitte,06,01.01.2021,905343.286,52.4349053,13.2599256
,,,,,,-1,0,-1,,,09200819,Köllnische Vorstadt,09,01.01.2021,1551715.709,52.4401246,13.5655966
,,,,,,-1,0,-1,,,04501150,Wilhelmsaue,04,01.01.2021,294733.282,52.3649133,13.8236659
,,,,,,-1,0,-1,,,06100206,Stadtpark,06,01.01.2021,710869.319,48.2047673,16.3796777
,,,,,,-1,0,-1,,,08100311,Reuterplatz,08,01.01.2021,259579.578,52.488991,13.4295955
,,,,,,-1,0,-1,,,10100210,Marzahner Promenade,10,01.01.2021,882937.952,52.5427434,13.5417042
,,,,,,-1,0,-1,,,09501736,Hirschgarten,09,01.01.2021,2873068.172,52.4579033,13.6031386
,,,,,,-1,0,-1,,,10100312,Springpfuhl,10,01.01.2021,1210405.984,52.52704,13.5365518
,,,,,,-1,0,-1,,,12100205,Teichstraße,12,01.01.2021,3374860.211,52.5742902,13.3477032
,,,,,,-1,0,-1,,,01100102,Großer Tiergarten,01,01.01.2021,3943375.966,52.5163027,13.3618189
,,,,,,-1,0,-1,,,02200210,Urbanstraße,02,01.01.2021,916800.234,52.4920389,13.4121724
,,,,,,-1,0,-1,,,03701556,Kollwitzplatz,03,01.01.2021,507067.779,52.5360538,13.4170422
,,,,,,-1,0,-1,,,05300736,Zitadellenweg,05,01.01.2021,2618966.462,52.5385702,13.2180949
,,,,,,-1,0,-1,,,06200419,Thermometersiedlung,06,01.01.2021,321216.339,52.4143173,13.3146229
,,,,,,-1,0,-1,,,02400625,Wriezener Bahnhof,02,01.01.2021,864393.136,52.5097216,13.4413892
,,,,,,-1,0,-1,,,06300630,Hindenburgdamm,06,01.01.2021,744828.036,54.8811721,8.5038375
,,,,,,-1,0,-1,,,11300617,Fennpfuhlpark,11,01.01.2021,474765.281,52.5298746,13.4762881
,,,,,,-1,0,-1,,,07501029,Ringstraße,07,01.01.2021,1441973.878,52.4397263,13.3000592
,,,,,,-1,0,-1,,,09100101,Alt-Treptow,09,01.01.2021,2314160.878,52.4925634,13.4598743
,,,,,,-1,0,-1,,,04300623,Karl-August-Platz,04,01.01.2021,582728.606,52.5083475,13.31097
,,,,,,-1,0,-1,,,05300737,Gartenfelder Straße,05,01.01.2021,1041737.87,52.5440841,13.2469803
,,,,,,-1,0,-1,,,06300524,Berlepschstraße,06,01.01.2021,1745589.171,52.4248288,13.241245
,,,,,,-1,0,-1,,,01200623,Stephankiez,01,01.01.2021,896475.72,,
,,,,,,-1,0,-1,,,05200632,Tiefwerder,05,01.01.2021,1564990.535,52.5205806,13.2101216
,,,,,,-1,0,-1,,,04400835,Rüdesheimer Platz,04,01.01.2021,600207.947,52.4732464,13.314415
,,,,,,-1,0,-1,,,10200627,Am Kienberg,10,01.01.2021,533187.712,52.5318497,13.5765484
,,,,,,-1,0,-1,,,02300418,Reichenberger Straße Ost,02,01.01.2021,599764.15,48.8907135,9.2112488
,,,,,,-1,0,-1,,,02500728,Samariterviertel,02,01.01.2021,310608.043,52.5172826,13.4655019
,,,,,,-1,0,-1,,,01200627,Zillesiedlung,01,01.01.2021,174352.764,52.5254166,13.3596071
,,,,,,-1,0,-1,,,05400945,Kafkastraße,05,01.01.2021,1737233.19,52.4468477,13.1277478
,,,,,,-1,0,-1,,,08200729,Britzer Garten,08,01.01.2021,3152323.401,52.4333576,13.4168768
,,,,,,-1,0,-1,,,02200207,Gleisdreieck,02,01.01.2021,746225.338,52.4995261,13.3740318
,,,,,,-1,0,-1,,,12200413,Tegel Süd,12,01.01.2021,755164.495,52.557199,13.2399819
,,,,,,-1,0,-1,,,04500937,Halensee,04,01.01.2021,709434.206,52.4972262,13.2929986
,,,,,,-1,0,-1,,,03400830,Kissingenviertel,03,01.01.2021,659319.939,,
,,,,,,-1,0,-1,,,03500936,Komponistenviertel Weißensee,03,01.01.2021,1119815.235,52.5483207,13.4576533
,,,,,,-1,0,-1,,,10200420,Gut Hellersdorf,10,01.01.2021,768070.915,52.5388882,13.5960756
,,,,,,-1,0,-1,,,01200517,Huttenkiez,01,01.01.2021,2484954.109,,
,,,,,,-1,0,-1,,,04300619,Alt-Lietzow,04,01.01.2021,536728.534,52.5180587,13.3137352
,,,,,,-1,0,-1,,,06100205,Südende,06,01.01.2021,850866.971,52.448279,13.3537492
,,,,,,-1,0,-1,,,04300624,Savignyplatz,04,01.01.2021,534638.01,52.5051746,13.3190659
,,,,,,-1,0,-1,,,10200419,Havelländer Ring,10,01.01.2021,203550.57,52.5422208,13.5959212
,,,,,,-1,0,-1,,,04200207,Eichkamp,04,01.01.2021,17440826.47,52.4986377,13.2702326
,,,,,,-1,0,-1,,,02200211,Chamissokiez,02,01.01.2021,977101.699,,
,,,,,,-1,0,-1,,,03601141,Arnimplatz,03,01.01.2021,286789.929,52.5517551,13.4094494
,,,,,,-1,0,-1,,,11401137,Erieseering,11,01.01.2021,718030.243,52.4963853,13.5187455
,,,,,,-1,0,-1,,,10100311,Marzahner Chaussee,10,01.01.2021,3993423.949,52.5256222,13.5336544
,,,,,,-1,0,-1,,,09100306,Späthsfelde,09,01.01.2021,2722772.522,52.4572678,13.4682365
,,,,,,-1,0,-1,,,03400724,Wolfshagener Straße,03,01.01.2021,770100.486,52.5719483,13.4077352
,,,,,,-1,0,-1,,,01200628,Lüneburger Straße,01,01.01.2021,745610.394,52.5214378,13.3602159
,,,,,,-1,0,-1,,,08401241,Blumenviertel,08,01.01.2021,2120024.309,51.5700688,6.7464478
,,,,,,-1,0,-1,,,04400726,Bismarckallee,04,01.01.2021,1428438.058,52.4903479,13.282251
,,,,,,-1,0,-1,,,12400618,Heiligensee Nord,12,01.01.2021,3247148.021,50.33333,3.66667
,,,,,,-1,0,-1,,,11300618,Storkower Bogen,11,01.01.2021,321189.597,52.5251835,13.4662336
,,,,,,-1,0,-1,,,06100102,Schloßstraße,06,01.01.2021,488811.665,52.461481,13.3250946
,,,,,,-1,0,-1,,,03701660,Bötzowstraße,03,01.01.2021,570547.019,52.5311523,13.4334877
,,,,,,-1,0,-1,,,01400941,Londoner Straße,01,01.01.2021,450348.205,48.7904404,9.1831272
,,,,,,-1,0,-1,,,08100313,Bouchéstraße,08,01.01.2021,140057.883,52.4940912,13.4545546
,,,,,,-1,0,-1,,,01100416,Arkonaplatz,01,01.01.2021,602000.541,52.5371794,13.4006058
,,,,,,-1,0,-1,,,01100313,Heine-Viertel Ost,01,01.01.2021,718064.233,51.21551,2.927
,,,,,,-1,0,-1,,,12400721,Frohnau Ost,12,01.01.2021,5090010.815,51.21551,2.927
,,,,,,-1,0,-1,,,01200519,Emdener Straße,01,01.01.2021,347156.033,52.5300319,13.3340575
,,,,,,-1,0,-1,,,03400721,Florakiez,03,01.01.2021,794219.102,,
,,,,,,-1,0,-1,,,02200209,Viktoriapark,02,01.01.2021,693579.377,52.4874664,13.3808123
,,,,,,-1,0,-1,,,05400944,Kladower Damm,05,01.01.2021,4312179.525,52.4572339,13.1492096
,,,,,,-1,0,-1,,,02500830,Niederbarnimstraße,02,01.01.2021,165471.669,52.5141953,13.4592404
,,,,,,-1,0,-1,,,07501031,Eisenacher Straße,07,01.01.2021,1542267.734,52.4895529,13.3501694
,,,,,,-1,0,-1,,,08301037,Gropiusstadt Süd-Ost,08,01.01.2021,437939.506,51.21551,2.927
,,,,,,-1,0,-1,,,12601031,Lübarser Straße,12,01.01.2021,1134119.154,52.6012352,13.3340499
,,,,,,-1,0,-1,,,04400728,Hagenplatz,04,01.01.2021,943658.249,52.6105776,12.3405655
,,,,,,-1,0,-1,,,07200307,Bayerischer Platz,07,01.01.2021,523935.318,52.4885755,13.3405436
,,,,,,-1,0,-1,,,09501737,Alt-Friedrichshagen,09,01.01.2021,11170398.98,52.45052,13.62463
,,,,,,-1,0,-1,,,10200524,Adele-Sandrock-Straße,10,01.01.2021,1111320.474,52.5347816,13.6190481
,,,,,,-1,0,-1,,,03500932,Bühringstraße,03,01.01.2021,992545.879,52.5579,13.4391686
,,,,,,-1,0,-1,,,07200413,Cheruskerstraße,07,01.01.2021,797218.918,51.313463,12.4268461
,,,,,,-1,0,-1,,,02400520,Barnimkiez,02,01.01.2021,941559.045,52.5256199,13.4250661
,,,,,,-1,0,-1,,,02500836,Stralauer Halbinsel,02,01.01.2021,1116993.913,,
,,,,,,-1,0,-1,,,12500928,Waidmannslust,12,01.01.2021,1731905.042,52.6080354,13.3225327
,,,,,,-1,0,-1,,,05100210,Germersheimer Platz,05,01.01.2021,544791.04,52.5445418,13.1871021
,,,,,,-1,0,-1,,,08401246,Waltersdorfer Chaussee Ost,08,01.01.2021,2245148.779,51.21551,2.927
,,,,,,-1,0,-1,,,03300515,Blankenburger Süden,03,01.01.2021,1162742.094,,
,,,,,,-1,0,-1,,,04500936,Droysenstraße,04,01.01.2021,273545.336,52.5017965,13.3005886
,,,,,,-1,0,-1,,,02300419,Wrangelkiez,02,01.01.2021,526704.17,52.4994382,13.4395831
,,,,,,-1,0,-1,,,08100208,Körnerpark,08,01.01.2021,553852.128,52.4713168,13.4379116
,,,,,,-1,0,-1,,,07100101,Wittenbergplatz,07,01.01.2021,621002.31,52.5017976,13.3430005
,,,,,,-1,0,-1,,,03500935,Behaimstraße,03,01.01.2021,439055.07,52.5491634,13.4455249
,,,,,,-1,0,-1,,,02200212,Graefekiez Süd,02,01.01.2021,391146.547,47.28495,8.56954
,,,,,,-1,0,-1,,,05200524,Döberitzer Weg,05,01.01.2021,1660861.495,52.5262911,13.126577
,,,,,,-1,0,-1,,,03400826,Tiroler Viertel,03,01.01.2021,658965.37,49.2231564,6.9747045
,,,,,,-1,0,-1,,,01300836,Humboldthain Nordwest,01,01.01.2021,1441436.944,,
,,,,,,-1,0,-1,,,11100101,Dörfer Malchow-Wartenberg,11,01.01.2021,8450640.742,48.40597,11.98865
,,,,,,-1,0,-1,,,10300733,Alt-Biesdorf,10,01.01.2021,2398113.275,52.5053042,13.5759012
,,,,,,-1,0,-1,,,08100419,Treptower Straße Nord,08,01.01.2021,430615.948,53.1740334,8.688494
,,,,,,-1,0,-1,,,05200633,Graetschelsteig,05,01.01.2021,491044.917,52.517429,13.1874442
,,,,,,-1,0,-1,,,07601544,John-Locke-Straße,07,01.01.2021,1123866.856,52.3925926,13.3992688
,,,,,,-1,0,-1,,,06200423,Schütte-Lanz-Straße,06,01.01.2021,1741827.825,52.4093744,13.3313105
,,,,,,-1,0,-1,,,06300525,Zehlendorf Süd,06,01.01.2021,1313473.565,52.4255052,13.2401681
,,,,,,-1,0,-1,,,03501037,Rathaus Weißensee,03,01.01.2021,1745019.881,52.5595657,13.4667892
,,,,,,-1,0,-1,,,11401136,Volkradstraße,11,01.01.2021,797319.282,52.5023481,13.5095519
,,,,,,-1,0,-1,,,07501032,Imbrosweg,07,01.01.2021,1232156.602,52.4421252,13.4093948
,,,,,,-1,0,-1,,,09100203,Plänterwald Ost,09,01.01.2021,2145011.963,51.21551,2.927
,,,,,,-1,0,-1,,,05300839,Rohrdamm,05,01.01.2021,1217866.308,52.5369951,13.262306
,,,,,,-1,0,-1,,,09401432,Siedlung Kämmereiheide,09,01.01.2021,938669.752,52.4438878,13.5994695
,,,,,,-1,0,-1,,,05300735,Haveleck,05,01.01.2021,1032879.049,52.5598518,13.2288705
,,,,,,-1,0,-1,,,12601236,Schorfheidestraße,12,01.01.2021,578276.162,52.5960414,13.3476766
,,,,,,-1,0,-1,,,11300724,Roedeliusplatz,11,01.01.2021,411272.412,52.5153072,13.4897495
,,,,,,-1,0,-1,,,01100414,Nordbahnhof,01,01.01.2021,373026.685,52.5322749,13.3878392
,,,,,,-1,0,-1,,,09300923,Kölner Viertel,09,01.01.2021,1566611.29,51.5680813,8.0913837
,,,,,,-1,0,-1,,,02100101,Askanischer Platz,02,01.01.2021,710730.18,52.50417,13.3819763
,,,,,,-1,0,-1,,,10400939,Alt-Mahlsdorf,10,01.01.2021,1898860.343,52.5047579,13.6143244
,,,,,,-1,0,-1,,,12400617,Alt-Heiligensee,12,01.01.2021,5358291.836,52.6085106,13.2127475
,,,,,,-1,0,-1,,,08200726,Hufeisensiedlung,08,01.01.2021,988530.849,52.447214,13.4470091
,,,,,,-1,0,-1,,,07100102,Kalckreuthstraße,07,01.01.2021,516600.183,52.4992767,13.3481218
,,,,,,-1,0,-1,,,02400623,Andreasviertel,02,01.01.2021,921717.463,50.9434623,6.9546675
,,,,,,-1,0,-1,,,05400942,Alt-Gatow,05,01.01.2021,11509680.04,52.4873713,13.1817661
,,,,,,-1,0,-1,,,01100309,Oranienburger Straße,01,01.01.2021,1011373.746,52.5252246,13.3930145
,,,,,,-1,0,-1,,,06200313,Lankwitz Kirche,06,01.01.2021,698873.673,52.4358021,13.3451257
,,,,,,-1,0,-1,,,01300733,Gesundbrunnen,01,01.01.2021,658286.291,52.5509201,13.384846
,,,,,,-1,0,-1,,,12200307,Reinickes Hof,12,01.01.2021,532920.494,52.5768149,13.331579
,,,,,,-1,0,-1,,,04200309,Neu Westend,04,01.01.2021,677508.402,52.5162154,13.2592357
,,,,,,-1,0,-1,,,06100204,Munsterdamm,06,01.01.2021,1115946.77,52.4588022,13.3488768
,,,,,,-1,0,-1,,,01400939,Glasgower Straße,01,01.01.2021,364628.689,52.5557462,13.3445467
,,,,,,-1,0,-1,,,05100206,Griesingerstraße,05,01.01.2021,1938153.127,52.5663908,13.155695
,,,,,,-1,0,-1,,,09301227,Karolinenhof,09,01.01.2021,2356822.331,54.3063163,20.7480956
,,,,,,-1,0,-1,,,06400842,Hüttenweg,06,01.01.2021,2974967.042,52.4544,13.2687745
,,,,,,-1,0,-1,,,07300515,Taunusstraße,07,01.01.2021,367064.158,50.1104395,8.6707201
,,,,,,-1,0,-1,,,02500834,Revaler Straße,02,01.01.2021,494573.77,52.5086518,13.4504693
,,,,,,-1,0,-1,,,05200634,Börnicker Straße,05,01.01.2021,3734108.559,52.515335,13.187755
,,,,,,-1,0,-1,,,09401635,Müggelheim,09,01.01.2021,22214559.98,52.4121651,13.6619543
,,,,,,-1,0,-1,,,03601347,Helmholtzplatz,03,01.01.2021,297839.94,52.5430211,13.4190326
,,,,,,-1,0,-1,,,04300413,Klausenerplatz,04,01.01.2021,478697.437,52.5192757,13.2923759
,,,,,,-1,0,-1,,,06300629,Botanischer Garten,06,01.01.2021,1416782.425,52.4543966,13.3041225
,,,,,,-1,0,-1,,,08401245,Frauenviertel,08,01.01.2021,471887.705,52.402485,13.5065115
,,,,,,-1,0,-1,,,07300618,Ceciliengärten,07,01.01.2021,567656.424,52.4742066,13.3418605
,,,,,,-1,0,-1,,,05100102,Am Forstacker,05,01.01.2021,320904.583,52.563741,13.2005004
,,,,,,-1,0,-1,,,09301025,Alt-Bohnsdorf,09,01.01.2021,5534318.435,52.39434,13.57339
,,,,,,-1,0,-1,,,09200613,Bahnhof Schöneweide,09,01.01.2021,1905365.32,52.4677285,13.5270901
,,,,,,-1,0,-1,,,03100102,Klinikum Buch,03,01.01.2021,2732305.923,52.632014,13.5127115
,,,,,,-1,0,-1,,,08100520,Weiße Siedlung,08,01.01.2021,1120618.029,52.4731845,13.4658989
,,,,,,-1,0,-1,,,06300527,Sundgauer Straße,06,01.01.2021,979984.266,52.4364399,13.2742012
,,,,,,-1,0,-1,,,10100104,Golliner Straße,10,01.01.2021,885234.901,52.5671202,13.579444
,,,,,,-1,0,-1,,,09100202,Plänterwald West,09,01.01.2021,854058.97,5.5,10.66667
,,,,,,-1,0,-1,,,07400824,Bosepark,07,01.01.2021,636900.462,52.4641863,13.3813349
,,,,,,-1,0,-1,,,07400822,Lindenhofsiedlung,07,01.01.2021,1453428.626,50.7919863,12.7491871
,,,,,,-1,0,-1,,,10100207,Ahrensfelder Berge,10,01.01.2021,1099130.226,52.5617716,13.5863863
,,,,,,-1,0,-1,,,09100305,Baumschulenweg Ost,09,01.01.2021,496802.575,50.5743181,10.4236216
,,,,,,-1,0,-1,,,11400930,Zachertstraße,11,01.01.2021,404076.256,52.5059058,13.507428
,,,,,,-1,0,-1,,,07501133,Fritz-Werner-Straße,07,01.01.2021,1756161.582,52.4304297,13.382139
,,,,,,-1,0,-1,,,09401431,Allende I,09,01.01.2021,513546.383,42.6847035,-2.948955
,,,,,,-1,0,-1,,,04400834,Binger Straße,04,01.01.2021,423122.92,49.8968166,7.9076685
,,,,,,-1,0,-1,,,06400839,Fischerhüttenstraße,06,01.01.2021,1832730.063,52.4425793,13.2404442
,,,,,,-1,0,-1,,,07400928,Germaniagarten,07,01.01.2021,660309.401,52.4621976,13.414561
,,,,,,-1,0,-1,,,10200418,Kyritzer Straße,10,01.01.2021,642564.559,52.5423056,13.5888498
,,,,,,-1,0,-1,,,02500727,Forckenbeckplatz,02,01.01.2021,338013.859,52.5196363,13.460275
,,,,,,-1,0,-1,,,11100206,Wartenberg Nord,11,01.01.2021,659163.079,48.4101969,11.9859222
,,,,,,-1,0,-1,,,03701659,Immanuelkirchstraße,03,01.01.2021,416209.907,52.532498,13.4242006
,,,,,,-1,0,-1,,,11100203,Falkenberg Ost,11,01.01.2021,909961.257,48.1575857,11.5805628
,,,,,,-1,0,-1,,,11300619,Rudolf-Seiffert-Park,11,01.01.2021,372623.718,39.11251,-100.35875
,,,,,,-1,0,-1,,,02300417,Reichenberger Straße West,02,01.01.2021,369691.05,51.5431258,7.0235272
,,,,,,-1,0,-1,,,02100103,Am Berlin Museum,02,01.01.2021,413261.601,52.5028025,13.3968127
,,,,,,-1,0,-1,,,09200512,Wuhlheide,09,01.01.2021,4246764.664,52.4685507,13.5543359
,,,,,,-1,0,-1,,,01100415,Invalidenstraße,01,01.01.2021,780145.036,52.5258065,13.3677031
,,,,,,-1,0,-1,,,11400931,Massower Straße,11,01.01.2021,415395.107,52.5073689,13.513711
,,,,,,-1,0,-1,,,06200420,Lichterfelde Süd,06,01.01.2021,1370724.921,52.4099669,13.3085527
,,,,,,-1,0,-1,,,09300922,Kosmos Viertel,09,01.01.2021,380869.074,,
,,,,,,-1,0,-1,,,01300834,Brunnenstraße,01,01.01.2021,774989.435,52.5370459,13.3970246
,,,,,,-1,0,-1,,,08100103,Schillerpromenade Süd,08,01.01.2021,479077.191,47.28495,8.56954
,,,,,,-1,0,-1,,,07400721,Paradestraße,07,01.01.2021,4281118.367,52.4780189,13.3862561
,,,,,,-1,0,-1,,,04400725,Güterbahnhof Grunewald,04,01.01.2021,543668.46,51.2210611,7.6289286
,,,,,,-1,0,-1,,,05300841,Siemensdamm,05,01.01.2021,268020.634,52.5367748,13.2727638
,,,,,,-1,0,-1,,,07400927,Rathaus Tempelhof,07,01.01.2021,3059291.42,52.4626224,13.3862605
,,,,,,-1,0,-1,,,06200316,Belßstraße,06,01.01.2021,671760.849,52.4271291,13.3663447
,,,,,,-1,0,-1,,,03200205,Uhlandstraße,03,01.01.2021,2411876.944,52.5028118,13.3266968
,,,,,,-1,0,-1,,,11300826,Frankfurter Allee Süd,11,01.01.2021,1053291.625,52.5072767,13.4808648
,,,,,,-1,0,-1,,,04400729,Hundekehle,04,01.01.2021,3754480.402,52.4722403,13.2418108
,,,,,,-1,0,-1,,,05200423,Magistratsweg,05,01.01.2021,640359.571,52.5344451,13.1573581
,,,,,,-1,0,-1,,,02400624,Weberwiese,02,01.01.2021,564671.677,52.5167465,13.4447135
,,,,,,-1,0,-1,,,03701657,Thälmannpark,03,01.01.2021,441343.324,51.0554462,12.0725394
,,,,,,-1,0,-1,,,01300730,Drontheimer Straße,01,01.01.2021,452951.105,52.5589161,13.3769475
,,,,,,-1,0,-1,,,04501153,Babelsberger Straße,04,01.01.2021,586111.81,52.4878133,13.3351805
,,,,,,-1,0,-1,,,08100417,Braunschweiger Straße,08,01.01.2021,412647.33,51.3741525,12.3660314
,,,,,,-1,0,-1,,,04501043,Preußenpark,04,01.01.2021,625790.463,52.4924987,13.3131211
,,,,,,-1,0,-1,,,01200626,Thomasiusstraße,01,01.01.2021,552841.838,52.5242116,13.3509015
,,,,,,-1,0,-1,,,04300517,Tegeler Weg,04,01.01.2021,519148.696,51.5165505,9.9725851
,,,,,,-1,0,-1,,,08200622,Jahnstraße,08,01.01.2021,667038.153,50.1204806,8.6825386
,,,,,,-1,0,-1,,,03601346,Gethsemanekirche,03,01.01.2021,193537.945,52.5477228,13.4161695
,,,,,,-1,0,-1,,,09501940,Güterbahnhof Köpenick,09,01.01.2021,596173.156,52.4570541,13.5911353
,,,,,,-1,0,-1,,,10200628,Neue Grottkauer Straße,10,01.01.2021,498608.53,52.5292757,13.591539
,,,,,,-1,0,-1,,,02300314,Oranienplatz,02,01.01.2021,443939.153,52.5022391,13.4157144
,,,,,,-1,0,-1,,,08100310,Maybachufer,08,01.01.2021,254730.185,52.4902303,13.4381631
,,,,,,-1,0,-1,,,04300414,Schloßstraße,04,01.01.2021,562551.123,52.461481,13.3250946
,,,,,,-1,0,-1,,,06400841,Zehlendorf Eiche,06,01.01.2021,1102137.543,52.4347645,13.2614751
,,,,,,-1,0,-1,,,05100105,Amorbacher Weg,05,01.01.2021,2202574.296,52.5575122,13.2070808
,,,,,,-1,0,-1,,,07300619,Grazer Platz,07,01.01.2021,2573774.394,52.4673121,13.3468159
,,,,,,-1,0,-1,,,12200309,Scharnweberstraße,12,01.01.2021,707704.668,52.5668172,13.3126219
,,,,,,-1,0,-1,,,06200312,Komponistenviertel Lankwitz,06,01.01.2021,1237842.731,52.43623,13.3459
,,,,,,-1,0,-1,,,09300920,Dorf Altglienicke,09,01.01.2021,4304670.517,52.41116,13.5355
,,,,,,-1,0,-1,,,10100208,Bürgerpark,10,01.01.2021,811083.749,52.2508569,10.5261623
,,,,,,-1,0,-1,,,09200510,Helmholtz-Kiez,09,01.01.2021,2330946.424,,
,,,,,,-1,0,-1,,,11100308,Zingster Straße West,11,01.01.2021,903489.486,51.3109317,12.2613493
,,,,,,-1,0,-1,,,04501045,Schaperstraße,04,01.01.2021,590815.934,52.4992283,13.3328504
,,,,,,-1,0,-1,,,01400940,Schillerpark,01,01.01.2021,917904.723,52.5570673,13.3510723
,,,,,,-1,0,-1,,,06100207,Mittelstraße,06,01.01.2021,679687.835,50.5502822,9.676245
,,,,,,-1,0,-1,,,03100103,Karower Chaussee,03,01.01.2021,1875386.595,52.6324605,13.5002177
,,,,,,-1,0,-1,,,08100102,Schillerpromenade Nord,08,01.01.2021,589643.475,50.33333,3.66667
,,,,,,-1,0,-1,,,01100310,Alexanderplatzviertel,01,01.01.2021,1365216.178,,
,,,,,,-1,0,-1,,,02500833,Boxhagener Platz,02,01.01.2021,340147.924,52.5108076,13.459703
,,,,,,-1,0,-1,,,11300723,Bornitzstraße,11,01.01.2021,497936.967,52.5207205,13.4804743
,,,,,,-1,0,-1,,,11501339,Karlshorst West,11,01.01.2021,994186.449,5.5,10.66667
,,,,,,-1,0,-1,,,03300514,Blankenburg,03,01.01.2021,4719969.861,51.7902676,10.9551991
,,,,,,-1,0,-1,,,03601453,Alter Schlachthof,03,01.01.2021,577288.26,49.3283952,8.432678
,,,,,,-1,0,-1,,,12500930,Wittenau Mitte,12,01.01.2021,1613716.435,52.52003,13.40489
,,,,,,-1,0,-1,,,12200310,Klixstraße,12,01.01.2021,819510.933,52.4895307,13.3510505
,,,,,,-1,0,-1,,,04501147,Leon-Jessel-Platz,04,01.01.2021,248608.958,52.4893871,13.3194622
,,,,,,-1,0,-1,,,08200832,Buckow Mitte,08,01.01.2021,2032572.845,52.52003,13.40489
,,,,,,-1,0,-1,,,09100304,Baumschulenweg West,09,01.01.2021,1613826.884,49.8342507,8.5736844
,,,,,,-1,0,-1,,,12400616,Konradshöhe/Tegelort,12,01.01.2021,2336407.792,52.5722155,13.2295251
,,,,,,-1,0,-1,,,08100207,Rollberg,08,01.01.2021,371774.258,52.3455216,13.054541
,,,,,,-1,0,-1,,,10100206,Wuhletalstraße,10,01.01.2021,845789.678,52.5635987,13.55534
,,,,,,-1,0,-1,,,04500939,Eisenzahnstraße,04,01.01.2021,757142.69,52.4955755,13.3050499
,,,,,,-1,0,-1,,,10200421,Helle Mitte,10,01.01.2021,163851.514,52.5377392,13.6037173
,,,,,,-1,0,-1,,,04200204,Angerburger Allee,04,01.01.2021,361436.949,52.5119311,13.2202055
,,,,,,-1,0,-1,,,07100205,Alvenslebenstraße,07,01.01.2021,317584.653,52.3820542,13.4060368
,,,,,,-1,0,-1,,,07601236,Marienfelder Allee Nordwest,07,01.01.2021,1147177.253,,
,,,,,,-1,0,-1,,,03601140,Malmöer Straße,03,01.01.2021,280593.845,52.5505248,13.4039395
,,,,,,-1,0,-1,,,03400620,Schönholz,03,01.01.2021,1909837.667,52.5715004,13.3809904
,,,,,,-1,0,-1,,,08401138,Goldhähnchenweg,08,01.01.2021,133642.042,52.4423118,13.4588088
,,,,,,-1,0,-1,,,01100206,Unter den Linden,01,01.01.2021,1297109.673,52.51712,13.3883269
,,,,,,-1,0,-1,,,03200310,Krugpfuhl,03,01.01.2021,2267490.053,52.6118211,13.4181228
,,,,,,-1,0,-1,,,09200614,Oberspree,09,01.01.2021,1072394.942,52.4524146,13.538075
,,,,,,-1,0,-1,,,01200629,Hansaviertel,01,01.01.2021,534709.38,52.5191234,13.3418725
,,,,,,-1,0,-1,,,01100308,Charitéviertel,01,01.01.2021,1682606.662,,
,,,,,,-1,0,-1,,,08200624,Tempelhofer Weg,08,01.01.2021,1189601.201,52.4504665,13.4351635
,,,,,,-1,0,-1,,,05100314,Kurstraße,05,01.01.2021,475094.232,52.5488113,13.2083949
,,,,,,-1,0,-1,,,11200515,Weiße Taube,11,01.01.2021,1033881.811,51.4624701,7.4521571
,,,,,,-1,0,-1,,,04300412,Schlossgarten,04,01.01.2021,1261028.946,49.4110971,8.7186891
,,,,,,-1,0,-1,,,06200418,Landweg,06,01.01.2021,1105430.596,52.6759038,4.7040102
,,,,,,-1,0,-1,,,11401034,Tierpark,11,01.01.2021,1733231.062,52.4977241,13.5229595
,,,,,,-1,0,-1,,,12500825,Borsigwalde,12,01.01.2021,1849143.867,52.5840624,13.3022741
,,,,,,-1,0,-1,,,06300633,Augustaplatz,06,01.01.2021,1667886.653,52.4428073,13.307452
,,,,,,-1,0,-1,,,01100205,Wilhelmstraße,01,01.01.2021,634642.165,52.516772,13.3806961
,,,,,,-1,0,-1,,,02100105,Prinzenstraße,02,01.01.2021,423358.266,52.4983972,13.40591
,,,,,,-1,0,-1,,,08100521,Schulenburgpark,08,01.01.2021,2197546.314,52.4676223,13.4706471
,,,,,,-1,0,-1,,,05300838,Gartenfeld,05,01.01.2021,934726.135,49.7531823,6.6487861
,,,,,,-1,0,-1,,,09401330,Wendenschloß,09,01.01.2021,964266.27,52.421424,13.5902581
,,,,,,-1,0,-1,,,03200309,Eddastraße,03,01.01.2021,3067550.203,52.6002622,13.4361844
,,,,,,-1,0,-1,,,09100408,Johannisthal Ost,09,01.01.2021,766677.209,52.4522793,13.5059474
,,,,,,-1,0,-1,,,04100101,Jungfernheide/Plötzensee,04,01.01.2021,5250473.344,,
,,,,,,-1,0,-1,,,03601142,Falkplatz,03,01.01.2021,907509.179,52.5458619,13.4037019
,,,,,,-1,0,-1,,,03400831,Pankower Tor,03,01.01.2021,534831.009,52.5718937,13.4228186
,,,,,,-1,0,-1,,,05100209,Westerwaldstraße,05,01.01.2021,747050.619,52.5489666,13.1781912
,,,,,,-1,0,-1,,,02200213,Graefekiez Nord,02,01.01.2021,592499.911,50.33333,3.66667
,,,,,,-1,0,-1,,,03400723,Garbátyplatz,03,01.01.2021,607995.223,52.5673537,13.4113982
,,,,,,-1,0,-1,,,08100418,Hertzbergplatz,08,01.01.2021,640246.503,52.4776072,13.4495004
,,,,,,-1,0,-1,,,10300732,Buckower Ring,10,01.01.2021,2059672.622,52.5247398,13.5686822
,,,,,,-1,0,-1,,,01300731,Koloniestraße,01,01.01.2021,666927.388,52.5556422,13.3771346
,,,,,,-1,0,-1,,,06100103,Markelstraße,06,01.01.2021,461305.073,52.4632986,13.3268156
,,,,,,-1,0,-1,,,02400522,Richard-Sorge-Viertel,02,01.01.2021,554538.617,,
,,,,,,-1,0,-1,,,11300722,Rathaus Lichtenberg,11,01.01.2021,889744.454,52.5157847,13.47984
,,,,,,-1,0,-1,,,01200624,Heidestraße,01,01.01.2021,687993.491,50.8586074,7.0932895
,,,,,,-1,0,-1,,,10300731,Oberfeldstraße,10,01.01.2021,2741494.88,52.511484,13.5540326
,,,,,,-1,0,-1,,,02100106,Wassertorplatz,02,01.01.2021,388951.28,52.4986548,13.4128891
,,,,,,-1,0,-1,,,04200205,Flatowallee,04,01.01.2021,977771.372,52.5107995,13.2409594
,,,,,,-1,0,-1,,,09100409,Landschaftspark Adlershof,09,01.01.2021,2988017.977,52.4357086,13.5215219
,,,,,,-1,0,-1,,,06200317,Lankwitz Süd,06,01.01.2021,1481592.997,52.4439242,13.3472286
,,,,,,-1,0,-1,,,04501146,Barstraße,04,01.01.2021,668496.932,52.4809689,13.3138612
,,,,,,-1,0,-1,,,08100206,Flughafenstraße,08,01.01.2021,421628.391,53.6385657,10.0155067
,,,,,,-1,0,-1,,,03400828,Spiekermann Straße,03,01.01.2021,364480.397,52.5538359,13.4266722
,,,,,,-1,0,-1,,,05100316,Carl-Schurz-Straße,05,01.01.2021,1377524.418,52.5354428,13.2006205
,,,,,,-1,0,-1,,,11401033,Gensinger Straße,11,01.01.2021,453276.055,52.511304,13.5326157
,,,,,,-1,0,-1,,,11401135,Dolgenseestraße,11,01.01.2021,699967.556,52.4943013,13.5043081
,,,,,,-1,0,-1,,,04501041,George-Grosz-Platz,04,01.01.2021,464758.366,52.5016301,13.3172359
,,,,,,-1,0,-1,,,04300415,Lietzensee,04,01.01.2021,633131.4,52.5064234,13.2880455
,,,,,,-1,0,-1,,,07601238,Marienfelde Nordost,07,01.01.2021,1985005.113,,
,,,,,,-1,0,-1,,,02400521,Friedenstraße,02,01.01.2021,731459.521,52.5222994,13.436259
,,,,,,-1,0,-1,,,07300517,Perelsplatz,07,01.01.2021,636676.693,52.4757886,13.3343464
,,,,,,-1,0,-1,,,06200311,Alt-Lankwitz,06,01.01.2021,993752.851,52.4402027,13.3514252
,,,,,,-1,0,-1,,,12100103,Breitkopfbecken,12,01.01.2021,720518.32,52.5728402,13.3627202
,,,,,,-1,0,-1,,,10100313,Alt-Marzahn,10,01.01.2021,1098916.273,52.5432248,13.5618728
,,,,,,-1,0,-1,,,07200411,Julius-Leber-Brücke,07,01.01.2021,135104.957,52.4865053,13.3611679
,,,,,,-1,0,-1,,,04501149,Nikolsburger Platz,04,01.01.2021,441478.723,52.4934076,13.3288241
,,,,,,-1,0,-1,,,03701555,Sredzkistraße,03,01.01.2021,314592.029,52.5383987,13.4163436
,,,,,,-1,0,-1,,,09502043,Dammheide,09,01.01.2021,4774864.972,52.4755255,13.5854881
,,,,,,-1,0,-1,,,05200422,Werkstraße,05,01.01.2021,1187909.516,50.1626879,11.8391734
,,,,,,-1,0,-1,,,04501040,Hindemithplatz,04,01.01.2021,303195.68,52.5033306,13.3079856
,,,,,,-1,0,-1,,,09502042,Mittelheide,09,01.01.2021,3196164.766,51.4753889,12.9638048
,,,,,,-1,0,-1,,,11100204,Falkenberg West,11,01.01.2021,776048.199,48.1575857,11.5805628
,,,,,,-1,0,-1,,,03400827,Trelleborger Viertel,03,01.01.2021,413274.686,,
,,,,,,-1,0,-1,,,02100102,Mehringplatz,02,01.01.2021,624461.329,52.498975,13.3917671
,,,,,,-1,0,-1,,,08100105,Silbersteinstraße,08,01.01.2021,463906.1,52.465647,13.4252949
,,,,,,-1,0,-1,,,07601341,Diedersdorfer Weg,07,01.01.2021,3913431.257,52.4045029,13.3618712
,,,,,,-1,0,-1,,,08200623,Park am Buschkrug,08,01.01.2021,1179315.735,52.4539816,13.4490753
,,,,,,-1,0,-1,,,06200422,Oberhofer Platz,06,01.01.2021,1367505.195,52.4249748,13.3280582
,,,,,,-1,0,-1,,,11400927,Victoriastadt,11,01.01.2021,374092.568,52.5046552,13.4781277
,,,,,,-1,0,-1,,,02500729,Pettenkofer Straße,02,01.01.2021,322475.261,52.5148294,13.4733875
,,,,,,-1,0,-1,,,01200625,Lübecker Straße,01,01.01.2021,325102.799,53.5598267,10.0286959
,,,,,,-1,0,-1,,,09200511,Griechischer Park,09,01.01.2021,1358629.737,52.4641223,13.5195929
,,,,,,-1,0,-1,,,10400940,Elsensee,10,01.01.2021,3163866.811,53.08529,17.76219
,,,,,,-1,0,-1,,,12500824,Ziekowstraße/Freie Scholle,12,01.01.2021,2227998.67,,
,,,,,,-1,0,-1,,,06400737,Nikolassee,06,01.01.2021,16490237.83,52.4262495,13.1981446
,,,,,,-1,0,-1,,,09200715,Wista,09,01.01.2021,2671176.226,5.671667,-7.648056
,,,,,,-1,0,-1,,,08200728,Ortolanweg,08,01.01.2021,1186449.651,52.4381206,13.4718036
,,,,,,-1,0,-1,,,08401243,Alt-Rudow,08,01.01.2021,2508146.136,52.4192041,13.49364
,,,,,,-1,0,-1,,,02200208,Rathaus Yorckstraße,02,01.01.2021,428884.992,52.2641266,13.535944
,,,,,,-1,0,-1,,,08300935,Gropiusstadt Süd-West,08,01.01.2021,677332.441,5.5,10.66667
,,,,,,-1,0,-1,,,08200727,Parchimer Allee Süd,08,01.01.2021,1156772.864,47.28495,8.56954
,,,,,,-1,0,-1,,,01401043,Antonstraße,01,01.01.2021,298918.993,51.0640318,13.7383684
,,,,,,-1,0,-1,,,12100206,Humboldtstraße,12,01.01.2021,759312.269,53.0751631,8.8242255
,,,,,,-1,0,-1,,,11300620,Fennpfuhl Ost,11,01.01.2021,556757.31,51.21551,2.927
,,,,,,-1,0,-1,,,01100311,Karl-Marx-Allee,01,01.01.2021,807957.752,52.518211,13.4295648
,,,,,,-1,0,-1,,,12100101,Letteplatz,12,01.01.2021,780562.753,52.5637071,13.3712928
,,,,,,-1,0,-1,,,04501042,Breitscheidplatz,04,01.01.2021,603711.632,52.5049676,13.335294
,,,,,,-1,0,-1,,,01100101,Stülerstraße,01,01.01.2021,366928.828,52.5096842,13.3514465
,,,,,,-1,0,-1,,,03300413,Karow Ost,03,01.01.2021,1864269.616,52.6004763,13.4682918
,,,,,,-1,0,-1,,,09200716,Dörpfeldstraße West,09,01.01.2021,947773.086,5.5,10.66667
,,,,,,-1,0,-1,,,08200730,Handwerker-Siedlung,08,01.01.2021,1376447.005,51.1180099,7.3873215
,,,,,,-1,0,-1,,,01401048,Leopoldplatz,01,01.01.2021,408306.36,52.5463833,13.3591672
,,,,,,-1,0,-1,,,03400619,Wilhelmsruh,03,01.01.2021,2169591.462,52.5880115,13.3622059
,,,,,,-1,0,-1,,,12500927,Wittenau Nord,12,01.01.2021,2494674.422,52.6017296,13.3187893
,,,,,,-1,0,-1,,,03200204,Blankenfelde,03,01.01.2021,13067860.48,52.3384429,13.4153952
,,,,,,-1,0,-1,,,10400941,Pilgramer Straße,10,01.01.2021,3690997.15,52.5016648,13.6205917
,,,,,,-1,0,-1,,,08100101,Hasenheide,08,01.01.2021,866353.168,48.1942381,11.2502197
,,,,,,-1,0,-1,,,11300616,Hohenschönhausener Straße,11,01.01.2021,416963.688,,
